{
  "generated_at": "2025-12-01T16:19:56.850743",
  "venues": [
    {
      "id": 285,
      "name": "BRUK",
      "slug": "bruk",
      "address_line1": "8 Little Underbank",
      "address_line2": null,
      "town": "Stockport",
      "postcode": "SK1 1JT",
      "latitude": 53.4110363,
      "longitude": -2.1577575,
      "description": null,
      "venue_type": null,
      "capacity": null,
      "website_url": null,
      "phone": null,
      "image_url": null,
      "source_name": "skiddle"
    },
    {
      "id": 286,
      "name": "Fitzpatricks",
      "slug": "fitzpatricks",
      "address_line1": "20 Railway Road",
      "address_line2": null,
      "town": "Stockport",
      "postcode": "SK1 3SW",
      "latitude": 53.4059418,
      "longitude": -2.1618416,
      "description": null,
      "venue_type": null,
      "capacity": null,
      "website_url": null,
      "phone": null,
      "image_url": null,
      "source_name": "skiddle"
    },
    {
      "id": 290,
      "name": "Grosvenor G Casino Didsbury",
      "slug": "grosvenor-g-casino-didsbury",
      "address_line1": "Parrswood Entertainment Centre",
      "address_line2": null,
      "town": "Didsbury",
      "postcode": "M20 5PG",
      "latitude": 53.408402,
      "longitude": -2.219219,
      "description": null,
      "venue_type": null,
      "capacity": null,
      "website_url": null,
      "phone": null,
      "image_url": null,
      "source_name": "skiddle"
    },
    {
      "id": 280,
      "name": "Holy Diver",
      "slug": "holy-diver",
      "address_line1": "1 Princes Street",
      "address_line2": null,
      "town": "Stockport",
      "postcode": "SK1 1SL",
      "latitude": 53.41117375,
      "longitude": -2.16158853,
      "description": null,
      "venue_type": null,
      "capacity": null,
      "website_url": null,
      "phone": null,
      "image_url": null,
      "source_name": "skiddle"
    },
    {
      "id": 291,
      "name": "LEVENSHULME OLD LIBRARY",
      "slug": "levenshulme-old-library",
      "address_line1": "CROMWELL GROVE",
      "address_line2": null,
      "town": "Manchester",
      "postcode": "M19 3QE",
      "latitude": 53.4450809,
      "longitude": -2.186546,
      "description": null,
      "venue_type": null,
      "capacity": null,
      "website_url": null,
      "phone": null,
      "image_url": null,
      "source_name": "skiddle"
    },
    {
      "id": 287,
      "name": "OverDraught",
      "slug": "overdraught",
      "address_line1": "855 Stockport Rd,",
      "address_line2": null,
      "town": "Manchester",
      "postcode": "M19 3PW",
      "latitude": 53.444015,
      "longitude": -2.1914145,
      "description": null,
      "venue_type": null,
      "capacity": null,
      "website_url": null,
      "phone": null,
      "image_url": null,
      "source_name": "skiddle"
    },
    {
      "id": 283,
      "name": "Plough On The Moor",
      "slug": "plough-on-the-moor",
      "address_line1": "82 Heaton Moor Rd,, United Kingdom",
      "address_line2": null,
      "town": "Stockport",
      "postcode": "SK4 4NZ",
      "latitude": 53.4234108,
      "longitude": -2.1833331,
      "description": null,
      "venue_type": null,
      "capacity": null,
      "website_url": null,
      "phone": null,
      "image_url": null,
      "source_name": "skiddle"
    },
    {
      "id": 282,
      "name": "Royal Nawaab Pyramid",
      "slug": "royal-nawaab-pyramid",
      "address_line1": "The Valley of Kings",
      "address_line2": null,
      "town": "Stockport",
      "postcode": "SK2 2JU",
      "latitude": 53.4106316,
      "longitude": -2.1575332,
      "description": null,
      "venue_type": null,
      "capacity": null,
      "website_url": null,
      "phone": null,
      "image_url": null,
      "source_name": "skiddle"
    },
    {
      "id": 279,
      "name": "Stockport Garrick Theatre",
      "slug": "stockport-garrick-theatre",
      "address_line1": "Exchange Street",
      "address_line2": null,
      "town": "Stockport",
      "postcode": "SK3 0EJ",
      "latitude": 53.4006391,
      "longitude": -2.1697116,
      "description": null,
      "venue_type": null,
      "capacity": null,
      "website_url": null,
      "phone": null,
      "image_url": null,
      "source_name": "skiddle"
    },
    {
      "id": 281,
      "name": "Stockport Masonic Guildhall",
      "slug": "stockport-masonic-guildhall",
      "address_line1": "169 Wellington Road South",
      "address_line2": null,
      "town": "Stockport",
      "postcode": "SK1 3UA",
      "latitude": 53.4023099,
      "longitude": -2.1563076,
      "description": null,
      "venue_type": null,
      "capacity": null,
      "website_url": null,
      "phone": null,
      "image_url": null,
      "source_name": "skiddle"
    },
    {
      "id": 288,
      "name": "The Barlow RC High School ",
      "slug": "the-barlow-rc-high-school",
      "address_line1": "Parrs Wood Road, East Didsbury",
      "address_line2": null,
      "town": "Manchester",
      "postcode": "M20 6BX",
      "latitude": 53.4154315,
      "longitude": -2.2200723,
      "description": null,
      "venue_type": null,
      "capacity": null,
      "website_url": null,
      "phone": null,
      "image_url": null,
      "source_name": "skiddle"
    },
    {
      "id": 289,
      "name": "The Talleyrand",
      "slug": "the-talleyrand",
      "address_line1": "1030 Stockport Road",
      "address_line2": null,
      "town": "Manchester",
      "postcode": "M19 3WX",
      "latitude": 53.4413062,
      "longitude": -2.1893087,
      "description": null,
      "venue_type": null,
      "capacity": null,
      "website_url": null,
      "phone": null,
      "image_url": null,
      "source_name": "skiddle"
    },
    {
      "id": 284,
      "name": "The Underbank",
      "slug": "the-underbank",
      "address_line1": "27 Great Underbank",
      "address_line2": null,
      "town": "Stockport",
      "postcode": "SK1 1LN",
      "latitude": 53.4112967,
      "longitude": -2.1580345,
      "description": null,
      "venue_type": null,
      "capacity": null,
      "website_url": null,
      "phone": null,
      "image_url": null,
      "source_name": "skiddle"
    }
  ],
  "total": 13
}
